{
"type": "FeatureCollection",
"crs": { "type": "name", "properties": { "name": "urn:ogc:def:crs:OGC:1.3:CRS84" } },
                                                                                
"features": [
{ "type": "Feature", "properties": { "Address": "1250 S BUCKLEY", "City": "AURORA", "State": "CO", "Country": "USA", "Vendor_#": "1054409", "Phone": "303-365-2273", "Type": "Urgent Care", "Name": "GUARDIAN URGENT CARE--AURORA", "Services": null, "Hours": null, "addrtype": "street_address", "addrlocat": "ROOFTOP" }, "geometry": { "type": "Point", "coordinates": [ -104.7894853, 39.6938932 ] } },
{ "type": "Feature", "properties": { "Address": "13650 E MISSISSIPPI AVE", "City": "AURORA", "State": "CO", "Country": "USA", "Vendor_#": "1031949", "Phone": "303-695-1338", "Type": "Urgent Care", "Name": "ROCKY MOUNTAIN URGENT CARE--AURORA", "Services": null, "Hours": null, "addrtype": "street_address", "addrlocat": "ROOFTOP" }, "geometry": { "type": "Point", "coordinates": [ -104.8336844, 39.6948315 ] } },
{ "type": "Feature", "properties": { "Address": "4800 BASELINE ROAD", "City": "BOULDER", "State": "CO", "Country": "USA", "Vendor_#": "1041127", "Phone": "303-499-4800", "Type": "Urgent Care", "Name": "ROCKY MOUNTAIN URGENT CARE--BOULDER", "Services": "DRUG TESTING; HEARING TEST; LAB; PRE-EMPLOYMENT PHYSICALS; URGENT CARE; WALK IN CARE; X-RAY", "Hours": "M-F : 8:00 AM-8:00 PM; Sat Sun : 8:00 AM-4:00 PM", "addrtype": "street_address", "addrlocat": "ROOFTOP" }, "geometry": { "type": "Point", "coordinates": [ -105.2329641, 39.9980681 ] } },
{ "type": "Feature", "properties": { "Address": "20270 EAST SMOKEY HILL RD", "City": "CENTENNIAL", "State": "CO", "Country": "USA", "Vendor_#": "1043751", "Phone": "877-889-1552", "Type": "Urgent Care", "Name": "ROCKY MOUNTAIN URGENT CARE--CENTENNIAL", "Services": null, "Hours": "8AM - 10PM M-F", "addrtype": "street_address", "addrlocat": "ROOFTOP" }, "geometry": { "type": "Point", "coordinates": [ -104.750679, 39.609594 ] } },
{ "type": "Feature", "properties": { "Address": "18240 E 104TH AVENUE", "City": "COMMERCE CITY", "State": "CO", "Country": "USA", "Vendor_#": "1040064", "Phone": "303-286-0027", "Type": "Urgent Care", "Name": "ROCKY MOUNTAIN URGENT CARE--COMMERCE CITY-REUNION VILLAGE", "Services": "URGENT CARE", "Hours": null, "addrtype": "street_address", "addrlocat": "ROOFTOP" }, "geometry": { "type": "Point", "coordinates": [ -104.774767, 39.8848054 ] } },
{ "type": "Feature", "properties": { "Address": "1 BROADWAY", "City": "DENVER", "State": "CO", "Country": "USA", "Vendor_#": "1040288", "Phone": "303-455-6345", "Type": "Urgent Care", "Name": "GUARDIAN URGENT CARE--DENVER", "Services": null, "Hours": null, "addrtype": "street_address", "addrlocat": "ROOFTOP" }, "geometry": { "type": "Point", "coordinates": [ -104.9877644, 39.7168451 ] } },
{ "type": "Feature", "properties": { "Address": "3601 S CLARKSON", "City": "ENGLEWOOD", "State": "CO", "Country": "USA", "Vendor_#": "1038190", "Phone": "720-974-7464", "Type": "Urgent Care", "Name": "ROCKY MOUNTAIN URGENT CARE--ENGLEWOOD", "Services": "DRUG TESTING; HEARING TEST; LAB; PRE-EMPLOYMENT PHYSICALS; URGENT CARE; WALK IN CARE; X-RAY", "Hours": "M-F : 8:00 AM-8:00 PM; Sat Sun : 8:00 AM-4:00 PM", "addrtype": "street_address", "addrlocat": "ROOFTOP" }, "geometry": { "type": "Point", "coordinates": [ -104.9786513, 39.6503926 ] } },
{ "type": "Feature", "properties": { "Address": "2127 E HARMONY ROAD", "City": "FORT COLLINS", "State": "CO", "Country": "USA", "Vendor_#": "1052080", "Phone": "970-350-2454", "Type": "Urgent Care", "Name": "CHMG--PVMG-HARMONY URGENT CARE CENTER", "Services": "DRUG TESTING; URGENT CARE; WALK IN CARE", "Hours": null, "addrtype": "street_address", "addrlocat": "ROOFTOP" }, "geometry": { "type": "Point", "coordinates": [ -105.0363151, 40.521453 ] } },
{ "type": "Feature", "properties": { "Address": "1900 16TH STREET", "City": "GREELEY", "State": "CO", "Country": "USA", "Vendor_#": "1048648", "Phone": "970-350-2483", "Type": "Urgent Care", "Name": "CHMG--PVMG-GMC URGENT CARE CENTER", "Services": null, "Hours": null, "addrtype": "street_address", "addrlocat": "ROOFTOP" }, "geometry": { "type": "Point", "coordinates": [ -104.710236, 40.4134416 ] } },
{ "type": "Feature", "properties": { "Address": "605 PARFET STREET", "City": "LAKEWOOD", "State": "CO", "Country": "USA", "Vendor_#": "1042779", "Phone": "877-889-1522", "Type": "Urgent Care", "Name": "ROCKY MOUNTAIN URGENT CARE--LAKEWOOD", "Services": null, "Hours": null, "addrtype": "street_address", "addrlocat": "ROOFTOP" }, "geometry": { "type": "Point", "coordinates": [ -105.1198605, 39.7263699 ] } },
{ "type": "Feature", "properties": { "Address": "9116 W BOWLES", "City": "LITTLETON,", "State": "CO", "Country": "USA", "Vendor_#": "1036667", "Phone": "303-904-2600", "Type": "Urgent Care", "Name": "URGENT CARE OF COLORADO PC", "Services": null, "Hours": "M-F : 8:00 AM-7:00 PM; Sat Sun : 9:00 AM-5:00 PM", "addrtype": "street_address", "addrlocat": "ROOFTOP" }, "geometry": { "type": "Point", "coordinates": [ -105.1007652, 39.6089148 ] } },
{ "type": "Feature", "properties": { "Address": "1551 PROFESSIONAL LANE", "City": "LONGMONT", "State": "CO", "Country": "USA", "Vendor_#": "1042117", "Phone": "877-889-1522", "Type": "Urgent Care", "Name": "ROCKY MOUNTAIN URGENT CARE--LONGMONT", "Services": null, "Hours": "M-F : 8:00 AM-8:00 PM; Sat Sun : 8:00 AM-4:00 PM", "addrtype": "street_address", "addrlocat": "ROOFTOP" }, "geometry": { "type": "Point", "coordinates": [ -105.1015146, 40.1395525 ] } },
{ "type": "Feature", "properties": { "Address": "3850 N GRANT AVENUE", "City": "LOVELAND", "State": "CO", "Country": "USA", "Vendor_#": "1048246", "Phone": "970-669-5717", "Type": "Urgent Care", "Name": "CHMG--PVMG-LOVELAND URGENT CARE", "Services": null, "Hours": "M-F : 8:00 AM-6:00 PM; Sat : 9:00 AM-5:00 PM; Sun : 9:00 AM-3:00 PM", "addrtype": "street_address", "addrlocat": "RANGE_INTERPOLATED" }, "geometry": { "type": "Point", "coordinates": [ -105.0788489, 40.4321281 ] } }
]
}
